{
"type": "FeatureCollection",
"name": "NORLI_6456_toilets",
"crs": { "type": "name", "properties": { "name": "urn:ogc:def:crs:OGC:1.3:CRS84" } },
"features": [
{ "type": "Feature", "properties": { "name": "McDonalds", "payment_info": "Free", "accessible": "Unknown", "radar": "False", "women": "True", "men": "True", "baby_change": "Unknown", "Mon": "Unknown", "Tue": "Unknown", "Wed": "Unknown", "Thu": "Unknown", "Fri": "Unknown", "Sat": "Unknown", "Sun": "Unknown", "index_right": 188, "park_offical_id": "NORLI_6456" }, "geometry": { "type": "Point", "coordinates": [ -0.694823639, 53.588991014 ] } },
{ "type": "Feature", "properties": { "name": "Costa Drive Thru", "payment_info": "Free", "accessible": "True", "radar": "Unknown", "women": "True", "men": "True", "baby_change": "Unknown", "Mon": "Unknown", "Tue": "Unknown", "Wed": "Unknown", "Thu": "Unknown", "Fri": "Unknown", "Sat": "Unknown", "Sun": "Unknown", "index_right": 188, "park_offical_id": "NORLI_6456" }, "geometry": { "type": "Point", "coordinates": [ -0.694088128, 53.58693643 ] } },
{ "type": "Feature", "properties": { "name": "Tesco Extra", "payment_info": "Free", "accessible": "True", "radar": "False", "women": "True", "men": "True", "baby_change": "Unknown", "Mon": "Unknown", "Tue": "Unknown", "Wed": "Unknown", "Thu": "Unknown", "Fri": "Unknown", "Sat": "Unknown", "Sun": "Unknown", "index_right": 188, "park_offical_id": "NORLI_6456" }, "geometry": { "type": "Point", "coordinates": [ -0.696462549, 53.590580769 ] } },
{ "type": "Feature", "properties": { "name": "KFC", "payment_info": "Free", "accessible": "True", "radar": "False", "women": "True", "men": "True", "baby_change": "Unknown", "Mon": "Unknown", "Tue": "Unknown", "Wed": "Unknown", "Thu": "Unknown", "Fri": "Unknown", "Sat": "Unknown", "Sun": "Unknown", "index_right": 188, "park_offical_id": "NORLI_6456" }, "geometry": { "type": "Point", "coordinates": [ -0.693868583, 53.588839705 ] } },
{ "type": "Feature", "properties": { "name": "Glanford Park", "payment_info": "You have to pay to go inside to see the football", "accessible": "True", "radar": "Unknown", "women": "True", "men": "True", "baby_change": "Unknown", "Mon": "Unknown", "Tue": "Unknown", "Wed": "Unknown", "Thu": "Unknown", "Fri": "Unknown", "Sat": "Unknown", "Sun": "Unknown", "index_right": 188, "park_offical_id": "NORLI_6456" }, "geometry": { "type": "Point", "coordinates": [ -0.694485141, 53.586474832 ] } },
{ "type": "Feature", "properties": { "name": "Pizza Hut", "payment_info": "Cost unknown", "accessible": "Unknown", "radar": "Unknown", "women": "True", "men": "True", "baby_change": "Unknown", "Mon": "Unknown", "Tue": "Unknown", "Wed": "Unknown", "Thu": "Unknown", "Fri": "Unknown", "Sat": "Unknown", "Sun": "Unknown", "index_right": 188, "park_offical_id": "NORLI_6456" }, "geometry": { "type": "Point", "coordinates": [ -0.69601455, 53.589023484 ] } },
{ "type": "Feature", "properties": { "name": "The Old Farm House Pub", "payment_info": "Cost unknown", "accessible": "True", "radar": "Unknown", "women": "True", "men": "True", "baby_change": "Unknown", "Mon": "Unknown", "Tue": "Unknown", "Wed": "Unknown", "Thu": "Unknown", "Fri": "Unknown", "Sat": "Unknown", "Sun": "Unknown", "index_right": 188, "park_offical_id": "NORLI_6456" }, "geometry": { "type": "Point", "coordinates": [ -0.696942812, 53.588658114 ] } }
]
}
