{
"type": "FeatureCollection",
"name": "NOREA_1347_toilets",
"crs": { "type": "name", "properties": { "name": "urn:ogc:def:crs:OGC:1.3:CRS84" } },
"features": [
{ "type": "Feature", "properties": { "name": "Subway", "payment_info": "Free", "accessible": "Unknown", "radar": "Unknown", "women": "Unknown", "men": "Unknown", "baby_change": "Unknown", "Mon": "Unknown", "Tue": "Unknown", "Wed": "Unknown", "Thu": "Unknown", "Fri": "Unknown", "Sat": "Unknown", "Sun": "Unknown", "index_right": 229, "park_offical_id": "NOREA_1347" }, "geometry": { "type": "Point", "coordinates": [ -0.01308918, 53.54566263 ] } },
{ "type": "Feature", "properties": { "name": "Pub", "payment_info": "Free", "accessible": "Unknown", "radar": "Unknown", "women": "Unknown", "men": "Unknown", "baby_change": "Unknown", "Mon": "Unknown", "Tue": "Unknown", "Wed": "Unknown", "Thu": "Unknown", "Fri": "Unknown", "Sat": "Unknown", "Sun": "Unknown", "index_right": 229, "park_offical_id": "NOREA_1347" }, "geometry": { "type": "Point", "coordinates": [ -0.015642643, 53.54788103 ] } },
{ "type": "Feature", "properties": { "name": "Kingsway public conveniences ", "payment_info": "Free", "accessible": "True", "radar": "True", "women": "True", "men": "True", "baby_change": "True", "Mon": "Unknown", "Tue": "Unknown", "Wed": "Unknown", "Thu": "Unknown", "Fri": "Unknown", "Sat": "Unknown", "Sun": "Unknown", "index_right": 229, "park_offical_id": "NOREA_1347" }, "geometry": { "type": "Point", "coordinates": [ -0.018203, 53.552446 ] } },
{ "type": "Feature", "properties": { "name": "Mcdonalds", "payment_info": "Free", "accessible": "True", "radar": "Unknown", "women": "True", "men": "True", "baby_change": "Unknown", "Mon": "Unknown", "Tue": "Unknown", "Wed": "Unknown", "Thu": "Unknown", "Fri": "Unknown", "Sat": "Unknown", "Sun": "Unknown", "index_right": 229, "park_offical_id": "NOREA_1347" }, "geometry": { "type": "Point", "coordinates": [ -0.013818741, 53.546261865 ] } },
{ "type": "Feature", "properties": { "name": "Taco Bell", "payment_info": "Free", "accessible": "Unknown", "radar": "Unknown", "women": "Unknown", "men": "Unknown", "baby_change": "Unknown", "Mon": "Unknown", "Tue": "Unknown", "Wed": "Unknown", "Thu": "Unknown", "Fri": "Unknown", "Sat": "Unknown", "Sun": "Unknown", "index_right": 229, "park_offical_id": "NOREA_1347" }, "geometry": { "type": "Point", "coordinates": [ -0.013411045, 53.545777378 ] } },
{ "type": "Feature", "properties": { "name": "KFC", "payment_info": "Free", "accessible": "Unknown", "radar": "Unknown", "women": "Unknown", "men": "Unknown", "baby_change": "Unknown", "Mon": "Unknown", "Tue": "Unknown", "Wed": "Unknown", "Thu": "Unknown", "Fri": "Unknown", "Sat": "Unknown", "Sun": "Unknown", "index_right": 229, "park_offical_id": "NOREA_1347" }, "geometry": { "type": "Point", "coordinates": [ -0.013647079, 53.546006872 ] } },
{ "type": "Feature", "properties": { "name": "Taphouse", "payment_info": "Free", "accessible": "Unknown", "radar": "Unknown", "women": "True", "men": "True", "baby_change": "Unknown", "Mon": "Unknown", "Tue": "Unknown", "Wed": "Unknown", "Thu": "Unknown", "Fri": "Unknown", "Sat": "Unknown", "Sun": "Unknown", "index_right": 229, "park_offical_id": "NOREA_1347" }, "geometry": { "type": "Point", "coordinates": [ -0.012617111, 53.547218072 ] } },
{ "type": "Feature", "properties": { "name": "Public toilet Next to Oriental Express", "payment_info": "Free", "accessible": "True", "radar": "True", "women": "True", "men": "True", "baby_change": "True", "Mon": "08:00-19:00", "Tue": "08:00-19:00", "Wed": "08:00-19:00", "Thu": "08:00-19:00", "Fri": "08:00-19:00", "Sat": "08:00-19:00", "Sun": "08:00-19:00", "index_right": 229, "park_offical_id": "NOREA_1347" }, "geometry": { "type": "Point", "coordinates": [ -0.0114129, 53.5455176 ] } }
]
}
