{
"type": "FeatureCollection",
"name": "SHEFF_928_toilets",
"crs": { "type": "name", "properties": { "name": "urn:ogc:def:crs:OGC:1.3:CRS84" } },
"features": [
{ "type": "Feature", "properties": { "name": "Royal Hallamshire Hospital", "payment_info": "Free", "accessible": "False", "radar": "Unknown", "women": "True", "men": "True", "baby_change": "True", "Mon": "00:00-00:00", "Tue": "00:00-00:00", "Wed": "00:00-00:00", "Thu": "00:00-00:00", "Fri": "00:00-00:00", "Sat": "00:00-00:00", "Sun": "00:00-00:00", "index_right": 378, "park_offical_id": "SHEFF_928" }, "geometry": { "type": "Point", "coordinates": [ -1.492922902, 53.378290217 ] } },
{ "type": "Feature", "properties": { "name": "Weston Park Museum", "payment_info": "Free", "accessible": "True", "radar": "False", "women": "True", "men": "True", "baby_change": "True", "Mon": "Closed", "Tue": "10:00-17:00", "Wed": "10:00-17:00", "Thu": "10:00-17:00", "Fri": "10:00-17:00", "Sat": "10:00-17:00", "Sun": "11:00-16:00", "index_right": 378, "park_offical_id": "SHEFF_928" }, "geometry": { "type": "Point", "coordinates": [ -1.492211113, 53.381683014 ] } },
{ "type": "Feature", "properties": { "name": "Ground Floor Toilets", "payment_info": "Free", "accessible": "True", "radar": "Unknown", "women": "True", "men": "True", "baby_change": "True", "Mon": "Unknown", "Tue": "Unknown", "Wed": "Unknown", "Thu": "Unknown", "Fri": "Unknown", "Sat": "Unknown", "Sun": "Unknown", "index_right": 378, "park_offical_id": "SHEFF_928" }, "geometry": { "type": "Point", "coordinates": [ -1.481901741, 53.381830768 ] } },
{ "type": "Feature", "properties": { "name": "Sheffield Students Union", "payment_info": "Free", "accessible": "True", "radar": "False", "women": "True", "men": "True", "baby_change": "True", "Mon": "09:00-17:00", "Tue": "09:00-17:00", "Wed": "09:00-17:00", "Thu": "09:00-17:00", "Fri": "09:00-17:00", "Sat": "Closed", "Sun": "Closed", "index_right": 378, "park_offical_id": "SHEFF_928" }, "geometry": { "type": "Point", "coordinates": [ -1.487434067, 53.380817107 ] } },
{ "type": "Feature", "properties": { "name": "Arts Tower", "payment_info": "Free", "accessible": "True", "radar": "Unknown", "women": "True", "men": "True", "baby_change": "Unknown", "Mon": "Unknown", "Tue": "Unknown", "Wed": "Unknown", "Thu": "Unknown", "Fri": "Unknown", "Sat": "Unknown", "Sun": "Unknown", "index_right": 378, "park_offical_id": "SHEFF_928" }, "geometry": { "type": "Point", "coordinates": [ -1.487353402, 53.382725261 ] } }
]
}
