{
"type": "FeatureCollection",
"name": "LEEDS_138_toilets",
"crs": { "type": "name", "properties": { "name": "urn:ogc:def:crs:OGC:1.3:CRS84" } },
"features": [
{ "type": "Feature", "properties": { "name": "Sainsburys", "payment_info": "Cost unknown", "accessible": "False", "radar": "Unknown", "women": "True", "men": "True", "baby_change": "True", "Mon": "Unknown", "Tue": "Unknown", "Wed": "Unknown", "Thu": "Unknown", "Fri": "Unknown", "Sat": "Unknown", "Sun": "Unknown", "index_right": 72, "park_offical_id": "LEEDS_138" }, "geometry": { "type": "Point", "coordinates": [ -1.553991437, 53.844181547 ] } },
{ "type": "Feature", "properties": { "name": "Waitrose Meanwood", "payment_info": "Free", "accessible": "True", "radar": "False", "women": "True", "men": "True", "baby_change": "True", "Mon": "Unknown", "Tue": "Unknown", "Wed": "Unknown", "Thu": "Unknown", "Fri": "Unknown", "Sat": "Unknown", "Sun": "Unknown", "index_right": 72, "park_offical_id": "LEEDS_138" }, "geometry": { "type": "Point", "coordinates": [ -1.567563415, 53.828782979 ] } },
{ "type": "Feature", "properties": { "name": "Unknown", "payment_info": "Free", "accessible": "False", "radar": "False", "women": "True", "men": "True", "baby_change": "Unknown", "Mon": "Unknown", "Tue": "Unknown", "Wed": "Unknown", "Thu": "Unknown", "Fri": "Unknown", "Sat": "Unknown", "Sun": "Unknown", "index_right": 72, "park_offical_id": "LEEDS_138" }, "geometry": { "type": "Point", "coordinates": [ -1.57258542, 53.83200126 ] } },
{ "type": "Feature", "properties": { "name": "Three Cottages Cafe Meanwood Park", "payment_info": "Free", "accessible": "Unknown", "radar": "Unknown", "women": "True", "men": "True", "baby_change": "True", "Mon": "09:00-18:00", "Tue": "09:00-18:00", "Wed": "09:00-18:00", "Thu": "09:00-18:00", "Fri": "09:00-18:00", "Sat": "09:00-18:00", "Sun": "09:00-18:00", "index_right": 72, "park_offical_id": "LEEDS_138" }, "geometry": { "type": "Point", "coordinates": [ -1.57389611, 53.831592875 ] } },
{ "type": "Feature", "properties": { "name": "KFC Meanwood", "payment_info": "Cost unknown", "accessible": "True", "radar": "False", "women": "True", "men": "True", "baby_change": "False", "Mon": "Unknown", "Tue": "Unknown", "Wed": "Unknown", "Thu": "Unknown", "Fri": "Unknown", "Sat": "Unknown", "Sun": "Unknown", "index_right": 72, "park_offical_id": "LEEDS_138" }, "geometry": { "type": "Point", "coordinates": [ -1.564575434, 53.829299047 ] } }
]
}
