{
"type": "FeatureCollection",
"name": "LEEDS_707_toilets",
"crs": { "type": "name", "properties": { "name": "urn:ogc:def:crs:OGC:1.3:CRS84" } },
"features": [
{ "type": "Feature", "properties": { "name": "Leeds General Infirmary Brotherton Wing", "payment_info": "Cost unknown", "accessible": "False", "radar": "Unknown", "women": "True", "men": "True", "baby_change": "Unknown", "Mon": "Unknown", "Tue": "Unknown", "Wed": "Unknown", "Thu": "Unknown", "Fri": "Unknown", "Sat": "Unknown", "Sun": "Unknown", "index_right": 383, "park_offical_id": "LEEDS_707" }, "geometry": { "type": "Point", "coordinates": [ -1.549296976, 53.801952939 ] } },
{ "type": "Feature", "properties": { "name": "Flannels Briggate Leeds ", "payment_info": "Free", "accessible": "True", "radar": "False", "women": "True", "men": "True", "baby_change": "True", "Mon": "Unknown", "Tue": "Unknown", "Wed": "Unknown", "Thu": "Unknown", "Fri": "Unknown", "Sat": "Unknown", "Sun": "Unknown", "index_right": 383, "park_offical_id": "LEEDS_707" }, "geometry": { "type": "Point", "coordinates": [ -1.542009389, 53.797501511 ] } },
{ "type": "Feature", "properties": { "name": "McDonalds", "payment_info": "Free", "accessible": "False", "radar": "Unknown", "women": "True", "men": "Unknown", "baby_change": "Unknown", "Mon": "09:00-17:00", "Tue": "09:00-17:00", "Wed": "09:00-17:00", "Thu": "09:00-17:00", "Fri": "09:00-17:00", "Sat": "09:00-17:00", "Sun": "09:00-17:00", "index_right": 383, "park_offical_id": "LEEDS_707" }, "geometry": { "type": "Point", "coordinates": [ -1.54410776, 53.800650635 ] } },
{ "type": "Feature", "properties": { "name": "Arch Cafe", "payment_info": "Free", "accessible": "True", "radar": "Unknown", "women": "True", "men": "True", "baby_change": "True", "Mon": "09:00-17:00", "Tue": "09:00-17:00", "Wed": "09:00-17:00", "Thu": "09:00-17:00", "Fri": "09:00-17:00", "Sat": "Closed", "Sun": "Closed", "index_right": 383, "park_offical_id": "LEEDS_707" }, "geometry": { "type": "Point", "coordinates": [ -1.543010473, 53.799898371 ] } },
{ "type": "Feature", "properties": { "name": "The Light", "payment_info": "20", "accessible": "True", "radar": "True", "women": "True", "men": "True", "baby_change": "True", "Mon": "Unknown", "Tue": "Unknown", "Wed": "Unknown", "Thu": "Unknown", "Fri": "Unknown", "Sat": "Unknown", "Sun": "Unknown", "index_right": 383, "park_offical_id": "LEEDS_707" }, "geometry": { "type": "Point", "coordinates": [ -1.545360088, 53.799681344 ] } },
{ "type": "Feature", "properties": { "name": "Art Gallery", "payment_info": "Free", "accessible": "True", "radar": "False", "women": "True", "men": "True", "baby_change": "True", "Mon": "Closed", "Tue": "10:00-17:00", "Wed": "10:00-17:00", "Thu": "10:00-17:00", "Fri": "10:00-17:00", "Sat": "10:00-17:00", "Sun": "11:00-17:00", "index_right": 383, "park_offical_id": "LEEDS_707" }, "geometry": { "type": "Point", "coordinates": [ -1.548112035, 53.800029853 ] } },
{ "type": "Feature", "properties": { "name": "Merrion House ", "payment_info": "Free", "accessible": "True", "radar": "False", "women": "True", "men": "True", "baby_change": "True", "Mon": "09:00-17:00", "Tue": "10:00-17:00", "Wed": "09:00-17:00", "Thu": "09:00-17:00", "Fri": "09:00-17:00", "Sat": "Closed", "Sun": "Closed", "index_right": 383, "park_offical_id": "LEEDS_707" }, "geometry": { "type": "Point", "coordinates": [ -1.545422014, 53.80272595 ] } },
{ "type": "Feature", "properties": { "name": "St Johns Centre", "payment_info": "Approx 20p", "accessible": "False", "radar": "Unknown", "women": "True", "men": "True", "baby_change": "True", "Mon": "09:00-17:00", "Tue": "09:00-17:00", "Wed": "09:00-17:00", "Thu": "09:00-17:00", "Fri": "09:00-17:00", "Sat": "09:00-17:00", "Sun": "09:00-17:00", "index_right": 383, "park_offical_id": "LEEDS_707" }, "geometry": { "type": "Point", "coordinates": [ -1.543763025, 53.800480542 ] } },
{ "type": "Feature", "properties": { "name": "Henry Moore Institute", "payment_info": "Free", "accessible": "True", "radar": "Unknown", "women": "True", "men": "True", "baby_change": "True", "Mon": "Closed", "Tue": "10:00-17:00", "Wed": "10:00-17:00", "Thu": "10:00-17:00", "Fri": "10:00-17:00", "Sat": "10:00-17:00", "Sun": "10:00-17:00", "index_right": 383, "park_offical_id": "LEEDS_707" }, "geometry": { "type": "Point", "coordinates": [ -1.547543406, 53.800029247 ] } },
{ "type": "Feature", "properties": { "name": "Parkinson Building basement", "payment_info": "Free", "accessible": "Unknown", "radar": "Unknown", "women": "True", "men": "True", "baby_change": "Unknown", "Mon": "Unknown", "Tue": "Unknown", "Wed": "Unknown", "Thu": "Unknown", "Fri": "Unknown", "Sat": "Unknown", "Sun": "Unknown", "index_right": 383, "park_offical_id": "LEEDS_707" }, "geometry": { "type": "Point", "coordinates": [ -1.552878315, 53.807461784 ] } },
{ "type": "Feature", "properties": { "name": "Leeds General Infirmary Clarendon Wing", "payment_info": "Cost unknown", "accessible": "True", "radar": "Unknown", "women": "True", "men": "True", "baby_change": "Unknown", "Mon": "00:00-00:00", "Tue": "00:00-00:00", "Wed": "00:00-00:00", "Thu": "00:00-00:00", "Fri": "00:00-00:00", "Sat": "00:00-00:00", "Sun": "00:00-00:00", "index_right": 383, "park_offical_id": "LEEDS_707" }, "geometry": { "type": "Point", "coordinates": [ -1.555232401, 53.802553132 ] } },
{ "type": "Feature", "properties": { "name": "Leeds University Union", "payment_info": "Cost unknown", "accessible": "True", "radar": "False", "women": "True", "men": "True", "baby_change": "Unknown", "Mon": "Unknown", "Tue": "Unknown", "Wed": "Unknown", "Thu": "Unknown", "Fri": "Unknown", "Sat": "Unknown", "Sun": "Unknown", "index_right": 383, "park_offical_id": "LEEDS_707" }, "geometry": { "type": "Point", "coordinates": [ -1.556249857, 53.806712751 ] } },
{ "type": "Feature", "properties": { "name": "Baines Wing Ground Floor", "payment_info": "Free", "accessible": "Unknown", "radar": "Unknown", "women": "True", "men": "True", "baby_change": "Unknown", "Mon": "Unknown", "Tue": "Unknown", "Wed": "Unknown", "Thu": "Unknown", "Fri": "Unknown", "Sat": "Unknown", "Sun": "Unknown", "index_right": 383, "park_offical_id": "LEEDS_707" }, "geometry": { "type": "Point", "coordinates": [ -1.553597152, 53.807485619 ] } },
{ "type": "Feature", "properties": { "name": "Leeds Central Library", "payment_info": "Free", "accessible": "True", "radar": "False", "women": "True", "men": "True", "baby_change": "True", "Mon": "09:00-20:00", "Tue": "09:00-20:00", "Wed": "09:00-20:00", "Thu": "09:00-20:00", "Fri": "09:00-17:00", "Sat": "10:00-16:00", "Sun": "Closed", "index_right": 383, "park_offical_id": "LEEDS_707" }, "geometry": { "type": "Point", "coordinates": [ -1.548718214, 53.800150159 ] } },
{ "type": "Feature", "properties": { "name": "Upstairs in Victoria Gate Shopping Centre", "payment_info": "Free", "accessible": "True", "radar": "False", "women": "True", "men": "True", "baby_change": "True", "Mon": "09:00-17:00", "Tue": "09:00-17:00", "Wed": "09:00-17:00", "Thu": "09:00-17:00", "Fri": "09:00-17:00", "Sat": "09:00-17:00", "Sun": "09:00-17:00", "index_right": 383, "park_offical_id": "LEEDS_707" }, "geometry": { "type": "Point", "coordinates": [ -1.538252881, 53.798199454 ] } },
{ "type": "Feature", "properties": { "name": "Trinity Leeds", "payment_info": "Free", "accessible": "True", "radar": "False", "women": "True", "men": "True", "baby_change": "True", "Mon": "09:00-20:00", "Tue": "09:00-20:00", "Wed": "09:00-20:00", "Thu": "09:00-20:00", "Fri": "09:00-20:00", "Sat": "09:00-20:00", "Sun": "11:00-17:00", "index_right": 383, "park_offical_id": "LEEDS_707" }, "geometry": { "type": "Point", "coordinates": [ -1.54396534, 53.797290809 ] } },
{ "type": "Feature", "properties": { "name": "Leeds General Infirmary Jubilee Wing", "payment_info": "Cost unknown", "accessible": "True", "radar": "Unknown", "women": "True", "men": "True", "baby_change": "Unknown", "Mon": "00:00-00:00", "Tue": "00:00-00:00", "Wed": "00:00-00:00", "Thu": "00:00-00:00", "Fri": "00:00-00:00", "Sat": "00:00-00:00", "Sun": "00:00-00:00", "index_right": 383, "park_offical_id": "LEEDS_707" }, "geometry": { "type": "Point", "coordinates": [ -1.552274173, 53.802808047 ] } },
{ "type": "Feature", "properties": { "name": "Leeds City Museum", "payment_info": "Free", "accessible": "Unknown", "radar": "Unknown", "women": "True", "men": "True", "baby_change": "True", "Mon": "Closed", "Tue": "10:00-17:00", "Wed": "10:00-17:00", "Thu": "10:00-17:00", "Fri": "10:00-17:00", "Sat": "10:00-17:00", "Sun": "11:00-17:00", "index_right": 383, "park_offical_id": "LEEDS_707" }, "geometry": { "type": "Point", "coordinates": [ -1.546839659, 53.801728003 ] } }
]
}
