{
"type": "FeatureCollection",
"name": "LEEDS_368_toilets",
"crs": { "type": "name", "properties": { "name": "urn:ogc:def:crs:OGC:1.3:CRS84" } },
"features": [
{ "type": "Feature", "properties": { "name": "Leeds station Platform 8", "payment_info": "Free", "accessible": "True", "radar": "Unknown", "women": "True", "men": "True", "baby_change": "Unknown", "Mon": "Unknown", "Tue": "Unknown", "Wed": "Unknown", "Thu": "Unknown", "Fri": "Unknown", "Sat": "Unknown", "Sun": "Unknown", "index_right": 277, "park_offical_id": "LEEDS_368" }, "geometry": { "type": "Point", "coordinates": [ -1.547621191, 53.794624465 ] } },
{ "type": "Feature", "properties": { "name": "Corn Exchange", "payment_info": "Free", "accessible": "True", "radar": "False", "women": "True", "men": "True", "baby_change": "True", "Mon": "10:00-18:00", "Tue": "10:00-18:00", "Wed": "10:00-18:00", "Thu": "10:00-21:00", "Fri": "10:00-18:00", "Sat": "10:00-18:00", "Sun": "10:30-16:30", "index_right": 277, "park_offical_id": "LEEDS_368" }, "geometry": { "type": "Point", "coordinates": [ -1.539979577, 53.79586331 ] } },
{ "type": "Feature", "properties": { "name": "Leeds Station Platform 12", "payment_info": "Free", "accessible": "True", "radar": "Unknown", "women": "True", "men": "True", "baby_change": "Unknown", "Mon": "Unknown", "Tue": "Unknown", "Wed": "Unknown", "Thu": "Unknown", "Fri": "Unknown", "Sat": "Unknown", "Sun": "Unknown", "index_right": 277, "park_offical_id": "LEEDS_368" }, "geometry": { "type": "Point", "coordinates": [ -1.547615826, 53.794158669 ] } },
{ "type": "Feature", "properties": { "name": "Unknown", "payment_info": "Free", "accessible": "False", "radar": "Unknown", "women": "Unknown", "men": "Unknown", "baby_change": "Unknown", "Mon": "Unknown", "Tue": "Unknown", "Wed": "Unknown", "Thu": "Unknown", "Fri": "Unknown", "Sat": "Unknown", "Sun": "Unknown", "index_right": 277, "park_offical_id": "LEEDS_368" }, "geometry": { "type": "Point", "coordinates": [ -1.5414896, 53.7873719 ] } },
{ "type": "Feature", "properties": { "name": "Leeds Station", "payment_info": "Free", "accessible": "True", "radar": "False", "women": "True", "men": "True", "baby_change": "True", "Mon": "Unknown", "Tue": "Unknown", "Wed": "Unknown", "Thu": "Unknown", "Fri": "Unknown", "Sat": "Unknown", "Sun": "Unknown", "index_right": 277, "park_offical_id": "LEEDS_368" }, "geometry": { "type": "Point", "coordinates": [ -1.5472918, 53.7948748 ] } }
]
}
