{
"type": "FeatureCollection",
"name": "YORK__552_toilets",
"crs": { "type": "name", "properties": { "name": "urn:ogc:def:crs:OGC:1.3:CRS84" } },
"features": [
{ "type": "Feature", "properties": { "name": "McDonalds", "payment_info": "Free", "accessible": "Unknown", "radar": "Unknown", "women": "Unknown", "men": "Unknown", "baby_change": "Unknown", "Mon": "Unknown", "Tue": "Unknown", "Wed": "Unknown", "Thu": "Unknown", "Fri": "Unknown", "Sat": "Unknown", "Sun": "Unknown", "index_right": 116, "park_offical_id": "YORK__552" }, "geometry": { "type": "Point", "coordinates": [ -1.084623635, 53.960614792 ] } },
{ "type": "Feature", "properties": { "name": "Union Terrace", "payment_info": "40p", "accessible": "True", "radar": "True", "women": "True", "men": "True", "baby_change": "True", "Mon": "09:00-17:00", "Tue": "09:00-17:00", "Wed": "09:00-17:00", "Thu": "09:00-17:00", "Fri": "09:00-17:00", "Sat": "09:00-17:00", "Sun": "09:00-17:00", "index_right": 116, "park_offical_id": "YORK__552" }, "geometry": { "type": "Point", "coordinates": [ -1.08340356, 53.9659991 ] } },
{ "type": "Feature", "properties": { "name": "Silver Street", "payment_info": "40p", "accessible": "False", "radar": "Unknown", "women": "Unknown", "men": "Unknown", "baby_change": "Unknown", "Mon": "Unknown", "Tue": "Unknown", "Wed": "Unknown", "Thu": "Unknown", "Fri": "Unknown", "Sat": "Unknown", "Sun": "Unknown", "index_right": 116, "park_offical_id": "YORK__552" }, "geometry": { "type": "Point", "coordinates": [ -1.0813737, 53.9595233 ] } },
{ "type": "Feature", "properties": { "name": "York library", "payment_info": "Free", "accessible": "Unknown", "radar": "Unknown", "women": "Unknown", "men": "Unknown", "baby_change": "Unknown", "Mon": "Unknown", "Tue": "Unknown", "Wed": "Unknown", "Thu": "Unknown", "Fri": "Unknown", "Sat": "Unknown", "Sun": "Unknown", "index_right": 116, "park_offical_id": "YORK__552" }, "geometry": { "type": "Point", "coordinates": [ -1.086345648, 53.961532762 ] } },
{ "type": "Feature", "properties": { "name": "York District Hospital", "payment_info": "Free", "accessible": "True", "radar": "Unknown", "women": "True", "men": "True", "baby_change": "True", "Mon": "00:00-00:00", "Tue": "00:00-00:00", "Wed": "00:00-00:00", "Thu": "00:00-00:00", "Fri": "00:00-00:00", "Sat": "00:00-00:00", "Sun": "00:00-00:00", "index_right": 116, "park_offical_id": "YORK__552" }, "geometry": { "type": "Point", "coordinates": [ -1.083663404, 53.970514329 ] } },
{ "type": "Feature", "properties": { "name": "Exhibition Square St Leonards Place", "payment_info": "40p", "accessible": "Unknown", "radar": "True", "women": "True", "men": "True", "baby_change": "Unknown", "Mon": "09:00-18:00", "Tue": "09:00-18:00", "Wed": "09:00-18:00", "Thu": "09:00-18:00", "Fri": "09:00-18:00", "Sat": "09:00-18:00", "Sun": "09:00-18:00", "index_right": 116, "park_offical_id": "YORK__552" }, "geometry": { "type": "Point", "coordinates": [ -1.0851919, 53.9626607 ] } },
{ "type": "Feature", "properties": { "name": "Silver Street", "payment_info": "40p", "accessible": "True", "radar": "True", "women": "Unknown", "men": "Unknown", "baby_change": "Unknown", "Mon": "00:00-00:00", "Tue": "00:00-00:00", "Wed": "00:00-00:00", "Thu": "00:00-00:00", "Fri": "00:00-00:00", "Sat": "00:00-00:00", "Sun": "00:00-00:00", "index_right": 116, "park_offical_id": "YORK__552" }, "geometry": { "type": "Point", "coordinates": [ -1.08146131, 53.959593779 ] } }
]
}
