{
"type": "FeatureCollection",
"name": "YORK__52_toilets",
"crs": { "type": "name", "properties": { "name": "urn:ogc:def:crs:OGC:1.3:CRS84" } },
"features": [
{ "type": "Feature", "properties": { "name": "York Station Platform 2", "payment_info": "Free", "accessible": "True", "radar": "True", "women": "False", "men": "True", "baby_change": "Unknown", "Mon": "Unknown", "Tue": "Unknown", "Wed": "Unknown", "Thu": "Unknown", "Fri": "Unknown", "Sat": "Unknown", "Sun": "Unknown", "index_right": 112, "park_offical_id": "YORK__52" }, "geometry": { "type": "Point", "coordinates": [ -1.093139648, 53.956615811 ] } },
{ "type": "Feature", "properties": { "name": "Rougier Street", "payment_info": "Free", "accessible": "True", "radar": "Unknown", "women": "True", "men": "True", "baby_change": "Unknown", "Mon": "Unknown", "Tue": "Unknown", "Wed": "Unknown", "Thu": "Unknown", "Fri": "Unknown", "Sat": "Unknown", "Sun": "Unknown", "index_right": 112, "park_offical_id": "YORK__52" }, "geometry": { "type": "Point", "coordinates": [ -1.087600887, 53.958370739 ] } },
{ "type": "Feature", "properties": { "name": "Nunnery Lane", "payment_info": "40p", "accessible": "True", "radar": "True", "women": "True", "men": "True", "baby_change": "True", "Mon": "09:00-17:00", "Tue": "09:00-17:00", "Wed": "09:00-17:00", "Thu": "09:00-17:00", "Fri": "09:00-17:00", "Sat": "09:00-17:00", "Sun": "09:00-17:00", "index_right": 112, "park_offical_id": "YORK__52" }, "geometry": { "type": "Point", "coordinates": [ -1.0904109, 53.9554538 ] } },
{ "type": "Feature", "properties": { "name": "The Punchbowl Wetherspoon", "payment_info": "Free", "accessible": "True", "radar": "True", "women": "True", "men": "True", "baby_change": "True", "Mon": "Unknown", "Tue": "Unknown", "Wed": "Unknown", "Thu": "Unknown", "Fri": "Unknown", "Sat": "Unknown", "Sun": "Unknown", "index_right": 112, "park_offical_id": "YORK__52" }, "geometry": { "type": "Point", "coordinates": [ -1.091023386, 53.955552087 ] } },
{ "type": "Feature", "properties": { "name": "York Station Platform 8", "payment_info": "Free", "accessible": "True", "radar": "True", "women": "False", "men": "True", "baby_change": "True", "Mon": "00:00-00:00", "Tue": "00:00-00:00", "Wed": "00:00-00:00", "Thu": "00:00-00:00", "Fri": "00:00-00:00", "Sat": "00:00-00:00", "Sun": "00:00-00:00", "index_right": 112, "park_offical_id": "YORK__52" }, "geometry": { "type": "Point", "coordinates": [ -1.0936952, 53.9584224 ] } },
{ "type": "Feature", "properties": { "name": "York Station Gents", "payment_info": "Free", "accessible": "False", "radar": "Unknown", "women": "Unknown", "men": "True", "baby_change": "Unknown", "Mon": "Unknown", "Tue": "Unknown", "Wed": "Unknown", "Thu": "Unknown", "Fri": "Unknown", "Sat": "Unknown", "Sun": "Unknown", "index_right": 112, "park_offical_id": "YORK__52" }, "geometry": { "type": "Point", "coordinates": [ -1.092686355, 53.958648491 ] } },
{ "type": "Feature", "properties": { "name": "Unknown", "payment_info": "Free", "accessible": "False", "radar": "Unknown", "women": "Unknown", "men": "Unknown", "baby_change": "Unknown", "Mon": "Unknown", "Tue": "Unknown", "Wed": "Unknown", "Thu": "Unknown", "Fri": "Unknown", "Sat": "Unknown", "Sun": "Unknown", "index_right": 112, "park_offical_id": "YORK__52" }, "geometry": { "type": "Point", "coordinates": [ -1.079788, 53.9541122 ] } },
{ "type": "Feature", "properties": { "name": "York Station Platform 1", "payment_info": "Free", "accessible": "False", "radar": "False", "women": "True", "men": "False", "baby_change": "True", "Mon": "Unknown", "Tue": "Unknown", "Wed": "Unknown", "Thu": "Unknown", "Fri": "Unknown", "Sat": "Unknown", "Sun": "Unknown", "index_right": 112, "park_offical_id": "YORK__52" }, "geometry": { "type": "Point", "coordinates": [ -1.093960404, 53.957786823 ] } },
{ "type": "Feature", "properties": { "name": "Rowntree Park", "payment_info": "Free", "accessible": "Unknown", "radar": "True", "women": "True", "men": "True", "baby_change": "Unknown", "Mon": "08:00-18:00", "Tue": "08:00-18:00", "Wed": "08:00-18:00", "Thu": "08:00-18:00", "Fri": "08:00-18:00", "Sat": "08:00-18:00", "Sun": "08:00-18:00", "index_right": 112, "park_offical_id": "YORK__52" }, "geometry": { "type": "Point", "coordinates": [ -1.07999146, 53.948761092 ] } }
]
}
