{
"type": "FeatureCollection",
"name": "ROTH5_18_toilets",
"crs": { "type": "name", "properties": { "name": "urn:ogc:def:crs:OGC:1.3:CRS84" } },
"features": [
{ "type": "Feature", "properties": { "name": "Centenary Markets", "payment_info": "Free", "accessible": "False", "radar": "False", "women": "True", "men": "True", "baby_change": "Unknown", "Mon": "Unknown", "Tue": "Unknown", "Wed": "Unknown", "Thu": "Unknown", "Fri": "Unknown", "Sat": "Unknown", "Sun": "Unknown", "index_right": 43, "park_offical_id": "ROTH5_18" }, "geometry": { "type": "Point", "coordinates": [ -1.357562542, 53.432670386 ] } },
{ "type": "Feature", "properties": { "name": "Tesco Extra Rotherham", "payment_info": "Cost unknown", "accessible": "True", "radar": "False", "women": "True", "men": "True", "baby_change": "True", "Mon": "Unknown", "Tue": "Unknown", "Wed": "Unknown", "Thu": "Unknown", "Fri": "Unknown", "Sat": "Unknown", "Sun": "Unknown", "index_right": 43, "park_offical_id": "ROTH5_18" }, "geometry": { "type": "Point", "coordinates": [ -1.353335381, 53.433975909 ] } },
{ "type": "Feature", "properties": { "name": "Popeyes ", "payment_info": "Free", "accessible": "True", "radar": "Unknown", "women": "True", "men": "True", "baby_change": "True", "Mon": "Unknown", "Tue": "Unknown", "Wed": "Unknown", "Thu": "Unknown", "Fri": "Unknown", "Sat": "Unknown", "Sun": "Unknown", "index_right": 43, "park_offical_id": "ROTH5_18" }, "geometry": { "type": "Point", "coordinates": [ -1.346216798, 53.44366295 ] } },
{ "type": "Feature", "properties": { "name": "McDonalds ", "payment_info": "Free", "accessible": "True", "radar": "Unknown", "women": "True", "men": "True", "baby_change": "Unknown", "Mon": "Unknown", "Tue": "Unknown", "Wed": "Unknown", "Thu": "Unknown", "Fri": "Unknown", "Sat": "Unknown", "Sun": "Unknown", "index_right": 43, "park_offical_id": "ROTH5_18" }, "geometry": { "type": "Point", "coordinates": [ -1.348877549, 53.442212317 ] } },
{ "type": "Feature", "properties": { "name": "Rotherham Interchange", "payment_info": "20p", "accessible": "False", "radar": "False", "women": "True", "men": "True", "baby_change": "True", "Mon": "Unknown", "Tue": "Unknown", "Wed": "Unknown", "Thu": "Unknown", "Fri": "Unknown", "Sat": "Unknown", "Sun": "Unknown", "index_right": 43, "park_offical_id": "ROTH5_18" }, "geometry": { "type": "Point", "coordinates": [ -1.35651648, 53.433423024 ] } }
]
}
